datetime,timestamp,latitude,longitude,accuracy,location,magNorth,trueNorth,accelX,accelY,accelZ,pitch,roll,yaw,illuminance,noise,battery
2015-07-14 13:36:02,130813689620512899,42.374991774559,-71.1098778247833,4,CAMBRIDGE STREET,157.535614013672,124.264579772949,0.56887,0.04766178,-0.09511143,-4.206167,55.95387,235.7354,4000,0,90
2015-07-14 13:36:03,130813689630625507,42.3749756813049,-71.1098456382751,4,CAMBRIDGE STREET,169.894744873047,136.623718261719,0.7057224,0.1375933,-0.05992082,-4.420498,57.072,223.3763,4000,0,90
2015-07-14 13:36:04,130813689640642828,42.3749756813049,-71.1098456382751,4,CAMBRIDGE STREET,159.879974365234,126.608955383301,1.038078,0.1102229,-0.3805465,-6.020538,57.18426,233.3911,4000,0,90
2015-07-14 13:36:05,130813689650773379,42.3749542236328,-71.109813451767,4,CAMBRIDGE STREET,167.982696533203,134.711669921875,1.503376,0.2548954,-0.6581613,-6.522735,62.19549,225.2883,4000,0,90
2015-07-14 13:36:06,130813689660872132,42.3749542236328,-71.109813451767,4,CAMBRIDGE STREET,162.886077880859,129.615051269531,1.644139,0.3018162,-0.3492659,-6.642086,65.55067,230.3849,4000,0,90
2015-07-14 13:36:07,130813689670975021,42.3749542236328,-71.109813451767,4,CAMBRIDGE STREET,156.832672119141,123.561653137207,0.8660352,0.04375171,-0.4782982,-7.429046,66.6226,236.8468,4000,0,90
2015-07-14 13:36:08,130813689681117474,42.3749542236328,-71.109813451767,4,CAMBRIDGE STREET,164.418838500977,131.147811889648,1.753621,0.02811143,-1.244672,-6.341885,62.27946,228.8522,4000,0,90
2015-07-14 13:36:09,130813689691143591,42.3749059438705,-71.1097490787506,4,CAMBRIDGE STREET,167.043502807617,133.772476196289,1.538567,0.1141329,-1.17038,-2.465302,63.64338,226.2275,4000,0,90
2015-07-14 13:36:10,130813689701147504,42.3749059438705,-71.1097490787506,4,CAMBRIDGE STREET,166.59309387207,133.322067260742,1.15929,0.004651025,-0.9670567,-4.030631,61.17626,226.6779,4000,0,90
2015-07-14 13:36:11,130813689711147532,42.3749059438705,-71.1097490787506,4,CAMBRIDGE STREET,163.45133972168,130.180313110352,1.15929,0.09849267,-1.002247,-3.193919,60.15855,229.8197,4000,0,89
2015-07-14 13:36:12,130813689721205037,42.3749059438705,-71.1097490787506,4,CAMBRIDGE STREET,164.066940307617,130.795913696289,1.038078,-0.04617986,-1.119549,-1.461592,58.89503,225.8226,4000,0,89
2015-07-14 13:36:13,130813689731293484,42.3748576641083,-71.1096847057343,4,CAMBRIDGE STREET,171.089874267578,137.81884765625,1.081089,-0.1478416,-0.9396862,-1.614124,60.1955,222.1812,3574.55,0,89
2015-07-14 13:36:14,130813689741451247,42.3748576641083,-71.1096847057343,4,CAMBRIDGE STREET,169.499923706055,136.228897094727,0.7995641,0.1845142,-1.303323,-1.896525,56.70287,214.6022,3301.13,0,89
2015-07-14 13:36:15,130813689751470027,42.3748415708542,-71.10964179039,4,CAMBRIDGE STREET,164.56672668457,131.295700073242,1.397804,0.09067252,-1.072628,-1.363306,62.59787,228.7043,3564.26,0,89
2015-07-14 13:36:16,130813689761532243,42.3748415708542,-71.10964179039,4,CAMBRIDGE STREET,176.237777709961,142.966751098633,1.296143,0.1454135,-0.9866071,-2.083877,62.9526,220.4231,2918.44,0,89
2015-07-14 13:36:17,130813689771534028,42.3748415708542,-71.10964179039,4,CAMBRIDGE STREET,162.164520263672,128.893493652344,1.460366,0.2431652,-0.697262,-4.540928,66.61134,231.1065,2771.44,0,89
2015-07-14 13:36:18,130813689781676766,42.3748415708542,-71.10964179039,4,CAMBRIDGE STREET,151.410278320313,118.13924407959,1.010708,0.1258631,-0.5369492,-3.378553,67.71198,241.8607,3728.41,0,89
2015-07-14 13:36:19,130813689791828387,42.3748201131821,-71.1095613241196,4,CAMBRIDGE STREET,166.378936767578,133.10791015625,1.280502,0.1336833,-0.6229707,-4.418736,63.82484,226.8921,4000,0,89
2015-07-14 13:36:20,130813689801864606,42.374804019928,-71.1095291376114,4,CAMBRIDGE STREET,151.629821777344,118.358787536621,1.229672,0.1493236,-0.6347009,-6.226728,63.81523,241.6412,4000,0,89
2015-07-14 13:36:21,130813689812022957,42.374804019928,-71.1095291376114,4,CAMBRIDGE STREET,157.013885498047,123.742858886719,1.605038,0.07894231,-1.119549,-5.623923,62.83916,236.2571,4000,0,89
2015-07-14 13:36:22,130813689822046010,42.374804019928,-71.1095291376114,4,CAMBRIDGE STREET,158.637954711914,125.366928100586,1.11628,-0.003169112,-0.5760499,-6.341298,64.29173,234.5932,3133.795,0,89
2015-07-14 13:36:23,130813689832147412,42.374804019928,-71.1095291376114,4,CAMBRIDGE STREET,159.133850097656,125.862831115723,0.850395,-0.0422698,-0.4079169,-7.066322,65.82142,234.1372,2795.45,0,89
2015-07-14 13:36:24,130813689842226631,42.374804019928,-71.1095291376114,4,CAMBRIDGE STREET,172.653823852539,139.382797241211,1.229672,0.1571437,-0.6073304,-8.503312,65.49234,220.6172,2942.205,0,89
2015-07-14 13:36:25,130813689852387705,42.374804019928,-71.1095291376114,4,CAMBRIDGE STREET,162.836273193359,129.565246582031,1.100639,0.0007409565,-0.5799599,-7.557645,64.78063,230.4347,2966.215,0,89
2015-07-14 13:36:26,130813689862475855,42.3747879266739,-71.1094218492508,4,CAMBRIDGE STREET,143.587677001953,110.31665802002,0.9794272,0.1297732,-0.4235572,-5.748,63.81448,249.6833,2733.955,0,89
2015-07-14 13:36:27,130813689872552456,42.3747879266739,-71.1094218492508,4,CAMBRIDGE STREET,87.4737930297852,54.202766418457,1.096729,0.1336833,-0.2593343,-7.295994,64.37949,305.7972,2419.375,0,89
2015-07-14 13:36:28,130813689882636579,42.3747879266739,-71.1094218492508,4,CAMBRIDGE STREET,278.169189453125,244.898147583008,1.171021,0.1923343,-0.5173988,-7.32397,60.60831,115.1019,2897.86,0,89
2015-07-14 13:36:29,130813689892753401,42.3747879266739,-71.1094218492508,4,CAMBRIDGE STREET,142.935638427734,109.664604187012,1.511196,0.2509854,-0.4900284,-9.12725,65.55559,267.3319,1609.405,0,89
2015-07-14 13:36:30,130813689902758809,42.3747932910919,-71.1093574762344,3,CAMBRIDGE STREET,39.1145133972168,5.8434853553772,1.448635,0.06330206,-0.6034203,-10.76701,65.25639,347.8148,967.015,0,89
2015-07-14 13:36:31,130813689912871344,42.3747932910919,-71.1093574762344,3,CAMBRIDGE STREET,42.272834777832,9.00180721282959,1.178841,-0.1908524,-0.5877801,-4.682177,64.22559,350.9982,1647.135,0,89
2015-07-14 13:36:32,130813689922873061,42.3747825622559,-71.1093252897263,4,CAMBRIDGE STREET,64.9585571289063,31.6875286102295,1.077179,-0.284694,-0.8614849,-10.76421,63.61852,321.0337,1794.135,0,89
2015-07-14 13:36:33,130813689933015939,42.3747825622559,-71.1093252897263,4,CAMBRIDGE STREET,61.9731369018555,28.7021102905273,1.511196,-0.03444966,-1.295502,-5.327192,58.79569,331.2979,4000,0,89
2015-07-14 13:36:34,130813689943097018,42.3747771978378,-71.1092877388,4,CAMBRIDGE STREET,55.7870025634766,22.5159740447998,1.022438,0.1845142,-1.326783,-4.767144,59.88137,337.484,4000,0,89
2015-07-14 13:36:35,130813689953237607,42.3747771978378,-71.1092877388,4,CAMBRIDGE STREET,32.5637817382813,359.292755126953,0.627521,0.2509854,-1.385434,-3.107777,53.22158,17.38511,4000,0,89
2015-07-14 13:36:36,130813689963350191,42.3747503757477,-71.109271645546,4,CAMBRIDGE STREET,254.129959106445,220.858932495117,0.9559668,0.1415034,-0.7363627,-2.282226,49.73364,139.1411,2415.945,0,89
2015-07-14 13:36:37,130813689973497231,42.3747503757477,-71.109271645546,4,CAMBRIDGE STREET,1.6270751953125,328.356048583984,1.13583,0.1375933,-0.7324526,-4.167973,52.24677,34.33479,1254.155,0,89
2015-07-14 13:36:38,130813689983514284,42.3747503757477,-71.109271645546,4,CAMBRIDGE STREET,322.232269287109,288.961242675781,0.8034741,0.03984164,-0.4939384,-4.670196,51.71224,71.03876,2279.235,0,89
2015-07-14 13:36:39,130813689993638050,42.3747503757477,-71.109271645546,4,CAMBRIDGE STREET,24.7437438964844,351.472717285156,0.7252728,0.09849267,-0.4509277,-4.806499,52.15997,8.527269,1773.555,0,89
2015-07-14 13:36:40,130813690003780798,42.3747128248215,-71.1092126369476,4,CAMBRIDGE STREET,351.891693115234,318.620666503906,0.7330929,0.06330206,-0.3258055,-8.186077,54.43542,47.08947,1835.05,0,89
2015-07-14 13:36:41,130813690013868096,42.3747128248215,-71.1092126369476,4,CAMBRIDGE STREET,184.927352905273,151.656326293945,1.014618,-0.07746041,-0.5916901,-4.777335,54.65915,208.3437,1978.62,0,89
2015-07-14 13:36:42,130813690023884521,42.3747128248215,-71.1092126369476,4,CAMBRIDGE STREET,66.3965148925781,33.1254844665527,0.6900821,-0.01880939,-0.4782982,-2.573096,54.96418,326.8745,1585.64,0,89
2015-07-14 13:36:43,130813690033936083,42.3747128248215,-71.1092126369476,4,CAMBRIDGE STREET,22.476318359375,349.205291748047,0.2717048,0.08676246,-0.2006833,-2.301172,53.92884,11.41252,1216.425,0,89
2015-07-14 13:36:44,130813690043986905,42.3747128248215,-71.1092126369476,4,CAMBRIDGE STREET,341.093902587891,307.822875976563,0.224784,0.06330206,-0.1498524,-2.802304,53.44316,52.17712,3301.13,0,89
2015-07-14 13:36:45,130813690054125707,42.3747128248215,-71.1092126369476,4,CAMBRIDGE STREET,2.140869140625,328.869842529297,0.08402151,0.02420137,-0.0872913,-3.092942,54.07581,31.13017,4000,0,89
2015-07-14 13:36:46,130813690064137548,42.3746860027313,-71.1090892553329,7,CAMBRIDGE STREET,354.940246582031,321.669219970703,0.1622229,-0.003169112,-0.05992082,-2.851481,55.39685,38.33077,4000,0,89
2015-07-14 13:36:47,130813690074260166,42.3746752738953,-71.1090570688248,6,CAMBRIDGE STREET,347.773864746094,314.502838134766,0.3108055,0.07112218,-0.1029316,-3.618989,55.06616,45.49716,4000,0,89
2015-07-14 13:36:48,130813690084271961,42.3746752738953,-71.1090570688248,6,CAMBRIDGE STREET,343.128448486328,309.857421875,0.4828485,-0.1400215,-0.2319638,-4.710194,59.08904,49.12603,4000,0,89
2015-07-14 13:36:49,130813690094374455,42.3746752738953,-71.1090570688248,6,CAMBRIDGE STREET,337.111175537109,303.840148925781,0.967697,-0.2651437,-0.3062551,-2.518359,58.83704,56.15987,3772.755,0,89
2015-07-14 13:36:50,130813690104461421,42.3746752738953,-71.1090570688248,6,CAMBRIDGE STREET,341.835113525391,308.564086914063,0.9481466,-0.08919062,-0.3140753,-2.4925,58.01437,51.43593,2354.45,0,89
2015-07-14 13:36:51,130813690114565081,42.3746591806412,-71.1089766025543,4,CAMBRIDGE STREET,36.6815414428711,3.41051530838013,1.421265,-0.5974995,-0.5682297,2.582522,57.728,356.5895,2299.815,0,89
2015-07-14 13:36:52,130813690124597058,42.3746591806412,-71.1089766025543,4,CAMBRIDGE STREET,15.1287536621094,341.857727050781,1.491646,-0.4019961,-0.525219,4.282419,60.80508,18.14228,2604.105,0,89
2015-07-14 13:36:53,130813690134601957,42.37465542,-71.10893682,4,CAMBRIDGE STREET,6.13363647460938,332.862609863281,1.429085,-0.07746041,-0.5760499,5.191599,61.59757,27.13737,4000,0,89
2015-07-14 13:36:54,130813690144668347,42.37465542,-71.10893682,4,CAMBRIDGE STREET,357.062774658203,323.791748046875,1.546387,0.05548191,-0.7129022,1.85262,61.8702,36.20824,4000,0,89
2015-07-14 13:36:55,130813690154823673,42.37465542,-71.10893682,4,CAMBRIDGE STREET,3.82315063476563,330.552124023438,1.13974,0.2509854,-0.5956002,3.286741,62.6291,29.44788,4000,0,89
2015-07-14 13:36:56,130813690164947781,42.37465542,-71.10893682,4,CAMBRIDGE STREET,354.806365966797,321.535339355469,1.190571,0.51687,-1.279862,-0.9675645,61.40026,38.46466,4000,0,89
2015-07-14 13:36:57,130813690175049030,42.374632358551,-71.1088693141937,4,CAMBRIDGE STREET,356.348876953125,323.077850341797,1.315693,0.4777693,-1.295502,-1.478872,59.3574,36.92213,4000,0,89
2015-07-14 13:36:58,130813690185097167,42.374632358551,-71.1088693141937,4,CAMBRIDGE STREET,351.235290527344,317.964263916016,1.331333,0.51687,-0.6542512,-6.775247,58.22234,42.03572,2597.245,0,89
2015-07-14 13:36:59,130813690195133676,42.374632358551,-71.1088693141937,4,CAMBRIDGE STREET,346.11376953125,312.842742919922,0.4867586,0.1806041,-1.13519,-4.436658,56.44258,47.15725,2723.665,0,89
2015-07-14 13:37:00,130813690205132985,42.374632358551,-71.1088693141937,4,CAMBRIDGE STREET,340.488403320313,307.217376708984,0.5375895,-0.07746041,-0.9944272,-6.773594,54.21338,52.78263,2597.245,0,89
2015-07-14 13:37:01,130813690215134846,42.3746109008789,-71.1087834835052,4,CAMBRIDGE STREET,349.680023193359,316.408996582031,0.4241975,-0.1634819,-0.8028339,-4.619366,56.90516,43.591,2532.32,0,89
2015-07-14 13:37:02,130813690225156713,42.3746109008789,-71.1087834835052,4,CAMBRIDGE STREET,341.782775878906,308.511749267578,0.8386647,0.02420137,-0.5682297,-6.467083,53.90152,51.48826,2494.59,0,89
2015-07-14 13:37:03,130813690235198764,42.3746001720428,-71.1087512969971,4,CAMBRIDGE STREET,339.794158935547,306.523132324219,1.13583,0.0007409565,-0.5330391,-4.593821,50.74927,53.47686,4000,0,89
2015-07-14 13:37:04,130813690245342136,42.3746001720428,-71.1087512969971,4,CAMBRIDGE STREET,344.429595947266,311.158569335938,0.8230245,0.03984164,-0.4079169,-4.763319,55.11958,48.84144,4000,0,89
2015-07-14 13:37:05,130813690255406557,42.3746001720428,-71.1087512969971,4,CAMBRIDGE STREET,339.591522216797,306.320495605469,0.3890068,0.01247116,-0.357086,-4.544357,54.97264,53.6795,4000,0,89
2015-07-14 13:37:06,130813690265544467,42.3746001720428,-71.1087512969971,4,CAMBRIDGE STREET,326.727447509766,293.456420898438,0.2365142,-0.09701075,-0.3023451,0.3213467,49.07306,66.54358,4000,0,89
2015-07-14 13:37:07,130813690275641618,42.3745840787888,-71.1086761951447,4,CAMBRIDGE STREET,325.106506347656,291.835479736328,0.02146041,-0.08137048,-0.1615826,-2.882831,45.30231,68.16451,3557.4,0,89
2015-07-14 13:37:08,130813690285768547,42.3745840787888,-71.1086761951447,4,CAMBRIDGE STREET,325.691772460938,292.420745849609,0.06447116,-0.02662952,-0.1342121,-5.469834,48.72611,67.61816,2819.215,0,89
2015-07-14 13:37:09,130813690295921170,42.3745840787888,-71.1086761951447,4,CAMBRIDGE STREET,328.531158447266,295.260131835938,0.1309423,-0.06573021,-0.05210068,-4.500889,48.60288,64.73986,2590.385,0,89
2015-07-14 13:37:10,130813690305954890,42.3745840787888,-71.1086761951447,4,CAMBRIDGE STREET,329.135498046875,295.864471435547,0.1270323,-0.04617986,-0.04819062,-1.766738,48.60681,64.13552,3359.195,0,89
2015-07-14 13:37:11,130813690316117230,42.3745840787888,-71.1086761951447,4,CAMBRIDGE STREET,328.945404052734,295.674377441406,0.5845103,0.06330206,-0.09120136,-1.198575,49.09428,64.32561,3533.635,0,89
2015-07-14 13:37:12,130813690326167576,42.3745840787888,-71.1086761951447,4,CAMBRIDGE STREET,328.486114501953,295.215087890625,0.5571398,0.172784,-0.1459423,-2.90492,47.79812,64.78491,3038,0,89
2015-07-14 13:37:13,130813690336222715,42.3745840787888,-71.1086761951447,4,CAMBRIDGE STREET,329.199859619141,295.928833007813,0.5297693,0.1962444,-0.1811329,-5.030147,48.8756,64.11589,3027.71,0,89
2015-07-14 13:37:14,130813690347812475,42.3745840787888,-71.1086761951447,4,CAMBRIDGE STREET,330.912811279297,297.641784667969,1.13192,0.01638123,-1.17038,-6.61262,58.39534,62.76867,3656.625,0,89
2015-07-14 13:37:15,130813690357894815,42.3745411634445,-71.1086601018906,3,ELLERY STREET,331.817443847656,298.546417236328,1.264862,0.02420137,-1.334603,-2.302101,58.20208,61.45357,2915.01,0,89
2015-07-14 13:37:16,130813690368047692,42.3745411634445,-71.1086601018906,3,ELLERY STREET,331.813598632813,298.542572021484,1.233582,0.008561093,-1.420625,-4.346978,54.3467,61.45743,3660.055,0,89
2015-07-14 13:37:17,130813690378079618,42.3745411634445,-71.1086601018906,3,ELLERY STREET,332.109161376953,298.838134765625,1.366524,0.1063128,-1.678689,-2.376878,57.18147,61.16186,3430.98,0,89
2015-07-14 13:37:18,130813690388133844,42.3745411634445,-71.1086601018906,3,ELLERY STREET,332.824920654297,299.553894042969,0.5571398,0.1258631,-1.053078,-2.416931,53.92345,60.44612,2508.31,0,89
2015-07-14 13:37:19,130813690398186944,42.3745411634445,-71.1086601018906,3,ELLERY STREET,333.17919921875,299.908172607422,0.682262,0.3018162,-1.15865,-4.206549,54.77151,60.09184,2552.655,0,89
2015-07-14 13:37:20,130813690408268936,42.3745411634445,-71.1086601018906,3,ELLERY STREET,333.884094238281,300.613067626953,0.7096325,-0.04617986,-1.13128,-5.134663,49.1997,59.88832,2768.01,0,89
2015-07-14 13:37:21,130813690418358022,42.3745411634445,-71.1086601018906,3,ELLERY STREET,333.252105712891,299.981079101563,0.6431613,-0.08919062,-0.7911036,-6.052244,50.56334,60.01892,2768.01,0,89
2015-07-14 13:37:22,130813690428445566,42.3745411634445,-71.1086601018906,3,ELLERY STREET,333.226959228516,299.955932617188,0.854305,-0.06573021,-0.810654,-5.842407,50.91549,60.04405,2812.355,0,89
2015-07-14 13:37:23,130813690438603864,42.3745411634445,-71.1086601018906,3,ELLERY STREET,333.482543945313,300.211517333984,0.9246863,-0.1165611,-0.6229707,-2.599283,50.65838,59.78849,2457.105,0,89
2015-07-14 13:37:24,130813690448684035,42.3745411634445,-71.1086601018906,3,ELLERY STREET,333.090881347656,299.819854736328,0.9481466,0.04766178,-0.752003,-1.11608,49.84325,60.28758,2655.31,0,89
2015-07-14 13:37:25,130813690458713314,42.3745411634445,-71.1086601018906,3,ELLERY STREET,333.202331542969,299.931304931641,0.7721936,-0.003169112,-0.5525895,-0.409101,51.42149,60.06869,2832.935,0,89
2015-07-14 13:37:26,130813690468749855,42.3745411634445,-71.1086601018906,3,ELLERY STREET,332.605926513672,299.334899902344,0.6392512,-0.03053959,-0.4431075,-2.277294,50.50261,60.66509,2945.635,0,89
2015-07-14 13:37:27,130813690478883126,42.3745411634445,-71.1086601018906,3,ELLERY STREET,332.604705810547,299.333679199219,0.4320176,0.08285239,-0.3140753,-3.388948,49.87611,60.66631,2829.505,0,89
2015-07-14 13:37:28,130813690488929806,42.3745411634445,-71.1086601018906,3,ELLERY STREET,333.324890136719,300.053863525391,0.3225357,0.09067252,-0.2358739,-2.248266,50.08689,59.94614,2768.01,0,89
2015-07-14 13:37:29,130813690498943040,42.374439239502,-71.1086976528168,4,ELLERY STREET,332.763885498047,299.492858886719,0.2912551,0.07112218,-0.2280538,-2.553247,49.68817,60.53611,2645.02,0,89
2015-07-14 13:37:30,130813690508974767,42.374439239502,-71.1086976528168,4,ELLERY STREET,332.722991943359,299.451965332031,0.2638846,0.02420137,-0.2202336,-2.755776,51.61367,60.58715,2621.01,0,89
2015-07-14 13:37:31,130813690518976523,42.374439239502,-71.1086976528168,4,ELLERY STREET,333.107177734375,299.836151123047,0.1974135,0.004651025,-0.1537625,-1.003956,53.81556,60.17791,2467.395,0,89
2015-07-14 13:37:32,130813690529048788,42.374439239502,-71.1086976528168,4,ELLERY STREET,333.219421386719,299.948394775391,0.2130538,0.008561093,-0.2163236,-5.734066,55.84875,60.05161,2060.695,0,89
2015-07-14 13:37:33,130813690539248000,42.374439239502,-71.1086976528168,4,ELLERY STREET,333.981903076172,300.710876464844,0.1661329,0.0202913,-0.1733128,-5.190725,54.80741,59.28914,2142.525,0,89
2015-07-14 13:37:34,130813690549398394,42.374439239502,-71.1086976528168,4,ELLERY STREET,334.544372558594,301.273345947266,0.1074819,0.02420137,-0.1811329,-5.855958,55.55615,58.72667,2340.73,0,89
2015-07-14 13:37:35,130813690559421895,42.374439239502,-71.1086976528168,4,ELLERY STREET,334.704895019531,301.433868408203,0.1661329,-0.05008993,-0.1224819,-2.855975,55.9444,58.56613,2863.805,0,89
2015-07-14 13:37:36,130813690569527074,42.374439239502,-71.1086976528168,4,ELLERY STREET,335.100494384766,301.829467773438,0.08793158,-0.06182014,-0.0872913,-3.755047,56.55037,58.17054,2484.3,0,89
2015-07-14 13:37:37,130813690579631668,42.374439239502,-71.1086976528168,4,ELLERY STREET,335.421966552734,302.150939941406,0.05274096,-0.06182014,-0.08338124,-3.297301,56.54583,57.84906,2118.76,0,89
2015-07-14 13:37:38,130813690589689273,42.3743641376495,-71.108729839325,4,ELLERY STREET,335.057220458984,301.786193847656,0.03710068,-0.04617986,-0.1303021,-3.964788,55.82955,58.21381,2645.02,0,89
2015-07-14 13:37:39,130813690599724296,42.3743641376495,-71.108729839325,4,ELLERY STREET,334.394989013672,301.123962402344,0.1778632,-0.02271945,-0.1224819,-4.978511,54.0842,58.87602,2426.235,0,89
2015-07-14 13:37:40,130813690609857970,42.3743641376495,-71.108729839325,4,ELLERY STREET,334.601470947266,301.330444335938,0.1544027,0.01638123,-0.126392,-5.455873,55.63629,58.66955,2665.6,0,89
2015-07-14 13:37:41,130813690619972638,42.3743641376495,-71.108729839325,4,ELLERY STREET,334.994110107422,301.723083496094,0.1309423,-0.054,-0.1185718,-3.017113,54.02817,58.27691,2631.3,0,89
2015-07-14 13:37:43,130813690630130584,42.3743641376495,-71.108729839325,4,ELLERY STREET,335.056945800781,301.785919189453,0.08402151,-0.08528055,-0.07947116,-3.043327,55.52776,58.21407,2993.655,0,89
2015-07-14 13:37:44,130813690640289561,42.3743641376495,-71.108729839325,4,ELLERY STREET,334.834716796875,301.563690185547,0.1192121,-0.0422698,-0.1107517,-3.01016,53.39359,58.4363,3178.14,0,89
2015-07-14 13:37:45,130813690650451207,42.3743641376495,-71.108729839325,4,ELLERY STREET,334.996704101563,301.725677490234,0.09966178,-0.06573021,-0.07556109,-2.144638,54.95325,58.19575,2966.215,0,89
2015-07-14 13:37:46,130813690660473166,42.3743641376495,-71.108729839325,4,ELLERY STREET,335.11474609375,301.843719482422,0.1231222,-0.03444966,-0.05992082,-3.490472,55.44868,58.15627,2836.365,0,89
2015-07-14 13:37:47,130813690670615901,42.3743641376495,-71.108729839325,4,ELLERY STREET,335.446014404297,302.174987792969,0.5219492,-0.1361114,-0.3101652,-2.91996,54.92926,57.82502,2850.085,0,89
2015-07-14 13:37:48,130813690680768741,42.3742514848709,-71.1087888479233,3,ELLERY STREET,335.908660888672,302.637634277344,0.4437478,-0.1908524,-0.1733128,-1.274049,52.19727,57.36236,2891,0,89
2015-07-14 13:37:49,130813690690859643,42.3742246627808,-71.1087995767593,3,ELLERY STREET,334.689910888672,301.418884277344,0.4281075,-0.07355034,-0.1928632,-5.023631,50.14053,58.58112,2918.44,0,89
2015-07-14 13:37:50,130813690700939895,42.3742032051086,-71.1088049411774,4,ELLERY STREET,334.774963378906,301.503936767578,0.8230245,-0.280784,-0.3297155,-4.829927,52.02892,58.49606,3215.625,0,89
2015-07-14 13:37:51,130813690711006945,42.3742032051086,-71.1088049411774,4,ELLERY STREET,68.9609375,35.6899108886719,1.202301,-0.4019961,-0.5682297,1.238573,55.54312,318.8635,4000,0,89
2015-07-14 13:37:52,130813690721016307,42.3741763830185,-71.1088210344315,4,ELLERY STREET,115.707580566406,82.4365539550781,1.479916,-0.2925142,-0.5564995,1.072681,55.53956,278.7948,3598.56,0,89
2015-07-14 13:37:53,130813690731023893,42.3741549253464,-71.1088317632675,4,ELLERY STREET,129.599700927734,96.3286743164063,1.562027,-0.3003343,-0.6620713,5.493015,58.16756,263.6713,3195.29,0,89
2015-07-14 13:37:54,130813690741185252,42.3741549253464,-71.1088317632675,4,ELLERY STREET,126.034210205078,92.76318359375,0.9559668,0.3330968,-0.7246324,1.489828,57.96473,267.2368,3102.925,0,89
2015-07-14 13:37:55,130813690751198043,42.3741549253464,-71.1088317632675,4,ELLERY STREET,126.077171325684,92.8061447143555,0.8738554,0.118043,-0.6190606,2.986787,57.92714,267.1938,3499.335,0,89
2015-07-14 13:37:56,130813690761267827,42.3741549253464,-71.1088317632675,4,ELLERY STREET,127.110389709473,93.8393630981445,0.8777654,0.2197048,-0.7480929,2.96366,58.75295,265.4041,3096.065,0,89
2015-07-14 13:37:57,130813690771287307,42.374085187912,-71.1088639497757,3,ELLERY STREET,132.277923583984,99.0068969726563,1.233582,0.2431652,-0.9866071,2.490451,60.19438,260.9334,3167.85,0,89
2015-07-14 13:37:58,130813690781294803,42.374085187912,-71.1088639497757,3,ELLERY STREET,135.847442626953,102.57640838623,1.612858,0.5559707,-1.369794,0.9417601,57.52971,257.4236,3301.13,0,89
2015-07-14 13:37:59,130813690791305172,42.374085187912,-71.1088639497757,3,ELLERY STREET,132.584136962891,99.3131103515625,1.225762,0.5637908,-0.8771251,0.4508608,56.2859,259.7168,3342.045,0,89
2015-07-14 13:38:00,130813690801408472,42.374085187912,-71.1088639497757,3,ELLERY STREET,129.478210449219,96.2071762084961,0.4672082,0.1336833,-1.189931,-4.569697,54.39904,263.7928,3506.195,0,89
2015-07-14 13:38:01,130813690811551281,42.374085187912,-71.1088639497757,3,ELLERY STREET,132.838394165039,99.5673675537109,0.514129,-0.0422698,-0.814564,-6.569617,50.1404,260.4326,2381.89,0,89
2015-07-14 13:38:02,130813690821653747,42.374085187912,-71.1088639497757,3,ELLERY STREET,131.632232666016,98.361198425293,0.854305,0.03984164,-0.6542512,-6.487436,46.46588,261.6388,2265.76,0,89
2015-07-14 13:38:03,130813690831655523,42.374085187912,-71.1088639497757,3,ELLERY STREET,135.017547607422,101.746513366699,0.9911574,0.07894231,-0.5369492,-6.03327,47.8857,258.2535,2173.395,0,89
2015-07-14 13:38:04,130813690841781541,42.374085187912,-71.1088639497757,3,ELLERY STREET,135.221450805664,101.950424194336,0.7330929,0.09849267,-0.4509277,-4.4757,49.97541,258.0496,2210.88,0,89
2015-07-14 13:38:05,130813690851905674,42.3739939928055,-71.1089283227921,4,ELLERY STREET,135.044738769531,101.773719787598,0.4672082,-0.06964028,-0.3609961,-5.127709,51.49795,258.2263,2802.31,0,89
2015-07-14 13:38:06,130813690861947096,42.3739725351334,-71.1089390516281,4,ELLERY STREET,133.481201171875,100.210174560547,0.224784,-0.03444966,-0.2163236,-4.140529,50.58373,259.7738,3294.27,0,89
2015-07-14 13:38:07,130813690872086837,42.3739725351334,-71.1089390516281,4,ELLERY STREET,134.160278320313,100.88924407959,0.1270323,-0.08528055,-0.1772229,-5.315376,50.75941,259.1107,3164.42,0,89
2015-07-14 13:38:08,130813690882152105,42.3739725351334,-71.1089390516281,4,ELLERY STREET,140.9375,107.666481018066,0.06056109,-0.06573021,-0.07556109,-4.953526,50.87814,252.3335,2884.14,0,89
2015-07-14 13:38:09,130813690892288155,42.3739725351334,-71.1089390516281,4,ELLERY STREET,137.578796386719,104.307762145996,0.3499061,-0.01098925,-0.09511143,-3.38776,50.07931,255.41,3164.42,0,89
2015-07-14 13:38:10,130813690902404421,42.3739725351334,-71.1089390516281,4,ELLERY STREET,136.686340332031,103.415321350098,0.7330929,0.1258631,-0.2006833,-3.303475,49.98526,256.5847,3376.345,0,89
2015-07-14 13:38:11,130813690912447883,42.373913526535,-71.1089766025543,4,ELLERY STREET,136.930480957031,103.659446716309,1.041988,0.286176,-0.4548377,-3.408838,49.02808,256.3405,4000,0,89
2015-07-14 13:38:12,130813690922507038,42.373913526535,-71.1089766025543,4,ELLERY STREET,139.951324462891,106.680290222168,1.444725,0.3839277,-0.7715533,-5.584335,52.28436,253.6136,4000,0,89
2015-07-14 13:38:13,130813690932517323,42.373913526535,-71.1089766025543,4,ELLERY STREET,138.518768310547,105.247741699219,1.393894,0.462129,-0.5369492,-9.775653,58.71859,254.7522,3745.315,0,89
2015-07-14 13:38:14,130813690942582893,42.3738867044449,-71.1089926958084,4,ELLERY STREET,135.09065246582,101.819625854492,1.530747,0.3018162,-0.755913,-5.890314,58.22416,258.1804,3728.41,0,89
2015-07-14 13:38:15,130813690952742994,42.3738867044449,-71.1089926958084,4,ELLERY STREET,135.383087158203,102.11206817627,1.15147,-0.1752121,-0.6933519,-5.066894,59.16406,257.5027,3564.26,0,89
2015-07-14 13:38:16,130813690962795133,42.3738867044449,-71.1089926958084,4,ELLERY STREET,135.411102294922,102.140068054199,0.9364164,-0.1478416,-0.6894419,-6.031617,60.4413,257.8599,3325.14,0,89
2015-07-14 13:38:17,130813690972867382,42.3738330602646,-71.1090356111526,4,ELLERY STREET,135.962249755859,102.691215515137,0.8425748,0.1532336,-0.7832835,-4.081735,58.13751,257.3088,2795.45,0,89
2015-07-14 13:38:18,130813690982969921,42.3738330602646,-71.1090356111526,4,ELLERY STREET,135.376068115234,102.105049133301,1.217941,0.3956579,-1.827272,-5.258494,54.92105,257.8641,2415.945,0,89
2015-07-14 13:38:19,130813690992989370,42.3738330602646,-71.1090356111526,4,ELLERY STREET,130.613616943359,97.3425827026367,0.6001506,0.2548954,-0.924046,-5.731171,50.5064,262.7482,2101.61,0,89
2015-07-14 13:38:20,130813691003068056,42.3738330602646,-71.1090356111526,4,ELLERY STREET,127.942939758301,94.6719131469727,0.6157908,-0.1869423,-0.8771251,-5.599689,49.24556,265.3281,1845.34,0,89
2015-07-14 13:38:21,130813691013108259,42.3738330602646,-71.1090356111526,4,ELLERY STREET,130.064056396484,96.7930221557617,1.16711,-0.01489932,-0.697262,-2.96034,48.21962,263.2069,1582.21,0,89
2015-07-14 13:38:22,130813691023267822,42.3738330602646,-71.1090356111526,4,ELLERY STREET,133.668029785156,100.396995544434,0.8073842,-0.06182014,-0.5408592,-3.402131,49.30687,259.1901,1462.65,0,89
2015-07-14 13:38:23,130813691033405701,42.3738330602646,-71.1090356111526,4,ELLERY STREET,136.069427490234,102.798393249512,0.3655464,0.05548191,-0.3297155,-3.208973,50.16737,257.2016,1541.05,0,89
2015-07-14 13:38:24,130813691043528935,42.3738330602646,-71.1090356111526,4,ELLERY STREET,142.625823974609,109.354789733887,0.1817732,0.08676246,-0.126392,-2.482337,49.69571,250.5431,1643.705,0,89
2015-07-14 13:38:25,130813691053536184,42.3738330602646,-71.1090356111526,4,ELLERY STREET,143.813125610352,110.542098999023,0.2052336,0.07503225,-0.1381222,-2.563302,50.41819,249.4936,1500.135,0,89
2015-07-14 13:38:26,130813691064272542,42.3736721277237,-71.1091375350952,4,ELLERY STREET,146.788558959961,113.517532348633,0.5414996,-0.1165611,-0.2554243,-2.536036,50.23381,246.4824,1602.545,0,89
2015-07-14 13:38:27,130813691074406213,42.3736721277237,-71.1091375350952,4,ELLERY STREET,140.243225097656,106.972206115723,0.6666217,-0.1204712,-0.298435,-1.92207,52.88496,253.0278,1835.05,0,89
2015-07-14 13:38:28,130813691084500701,42.3736721277237,-71.1091375350952,4,ELLERY STREET,141.31510925293,108.044082641602,1.229672,-0.4215464,-0.6816217,0.814582,53.32613,251.9559,1906.835,0,89
2015-07-14 13:38:29,130813691094517158,42.3736721277237,-71.1091375350952,4,ELLERY STREET,142.301818847656,109.030792236328,1.425175,-0.2064927,-0.8341144,1.551423,56.64565,250.9692,1869.35,0,89
2015-07-14 13:38:30,130813691104675778,42.3736721277237,-71.1091375350952,4,ELLERY STREET,141.248229980469,107.977195739746,1.476006,0.02420137,-0.8771251,2.502335,57.26828,252.0228,1961.47,0,89
2015-07-14 13:38:31,130813691114788404,42.3736721277237,-71.1091375350952,4,ELLERY STREET,141.556243896484,108.285224914551,1.1241,0.4347586,-0.7676432,3.933028,56.63892,251.7148,2535.75,0,89
2015-07-14 13:38:32,130813691124790075,42.3736721277237,-71.1091375350952,4,ELLERY STREET,138.573028564453,105.30199432373,0.9246863,0.02420137,-0.7793734,1.44576,57.15779,254.3764,2679.075,0,89
2015-07-14 13:38:33,130813691134791843,42.3736721277237,-71.1091375350952,4,ELLERY STREET,144.244216918945,110.973190307617,1.073269,0.1063128,-0.8184741,0.03740211,58.57001,249.0268,2566.375,0,89
2015-07-14 13:38:34,130813691144803438,42.3736721277237,-71.1091375350952,4,ELLERY STREET,144.277435302734,111.006408691406,1.346974,0.3682874,-1.13128,-0.7050257,58.22578,248.9936,2853.515,0,89
2015-07-14 13:38:35,130813691154919921,42.3736721277237,-71.1091375350952,4,ELLERY STREET,144.698104858398,111.42707824707,1.296143,0.4191183,-1.103909,-2.304492,57.64325,248.9642,2983.365,0,89
2015-07-14 13:38:36,130813691164988190,42.373548746109,-71.1092662811279,4,ELLERY STREET,143.653213500977,110.382186889648,0.7252728,0.2666256,-0.9905171,-4.773537,55.33102,249.6178,2979.935,0,89
2015-07-14 13:38:37,130813691174985604,42.373548746109,-71.1092662811279,4,ELLERY STREET,144.327331542969,111.056312561035,0.5571398,0.1375933,-1.041348,-5.788066,54.22873,249.023,2077.6,0,89
2015-07-14 13:38:38,130813691185055579,42.3735219240189,-71.109282374382,5,ELLERY STREET,144.132110595703,110.861083984375,0.4593881,0.2157947,-1.021798,-6.357471,55.18435,249.1389,1739.255,0,89
2015-07-14 13:38:39,130813691195108498,42.3735219240189,-71.109282374382,5,ELLERY STREET,143.700317382813,110.429298400879,0.4359277,0.2040645,-1.088269,-6.230594,55.04996,249.5707,1513.855,0,89
2015-07-14 13:38:40,130813691205165610,42.3734951019287,-71.1092984676361,5,ELLERY STREET,140.564025878906,107.293006896973,0.2365142,0.2001544,-0.9787869,-7.691817,50.16307,252.5305,1503.565,0,89
2015-07-14 13:38:41,130813691215222844,42.3734951019287,-71.1092984676361,5,ELLERY STREET,143.562088012695,110.291061401367,0.5023988,0.1884242,-0.8614849,-6.626977,49.99573,249.708,1445.5,0,89
2015-07-14 13:38:42,130813691225351558,42.3734736442566,-71.1093252897263,5,ELLERY STREET,142.308898925781,109.037879943848,0.9364164,0.1102229,-0.7911036,-7.172272,48.47058,250.9621,1541.05,0,89
2015-07-14 13:38:43,130813691235392680,42.3734736442566,-71.1093252897263,5,ELLERY STREET,143.636383056641,110.365356445313,0.6744419,0.2118846,-0.642521,-6.792978,47.75297,249.8386,2105.04,0,89
2015-07-14 13:38:44,130813691245431772,42.3734736442566,-71.1093252897263,5,ELLERY STREET,142.949829101563,109.678802490234,0.6548915,0.09849267,-0.7011721,-6.771012,49.35859,250.3212,1872.535,0,89
2015-07-14 13:38:45,130813691255489603,42.3734736442566,-71.1093252897263,5,ELLERY STREET,141.945007324219,108.673988342285,1.182751,-0.08528055,-0.4313773,-7.720968,47.06979,251.326,1835.05,0,89
2015-07-14 13:38:46,130813691265622269,42.3734736442566,-71.1093252897263,5,ELLERY STREET,143.499298095703,110.22827911377,0.5727801,-0.06182014,-0.3609961,-5.437063,50.76804,249.7717,1636.845,0,89
2015-07-14 13:38:47,130813691275664339,42.3734736442566,-71.1093252897263,5,ELLERY STREET,140.611358642578,107.34033203125,0.4828485,0.01247116,-0.3961867,-5.4016,53.29404,252.6597,1612.835,0,89
2015-07-14 13:38:48,130813691285706970,42.3734736442566,-71.1093252897263,5,ELLERY STREET,141.168441772461,107.897415161133,0.1778632,-0.04617986,-0.2202336,-5.24452,51.44896,252.1026,2252.04,0,89
2015-07-14 13:38:49,130813691295778341,42.3734736442566,-71.1093252897263,5,ELLERY STREET,143.026184082031,109.755165100098,0.09966178,-0.08528055,-0.1772229,-5.17492,51.68902,250.3157,2323.825,0,89
2015-07-14 13:38:50,130813691305855261,42.3734736442566,-71.1093252897263,5,ELLERY STREET,142.871215820313,109.600196838379,0.02537048,-0.07355034,-0.1029316,-3.982984,51.89481,250.3998,2354.45,0,89
2015-07-14 13:38:51,130813691315907883,42.3734146356583,-71.1094218492508,4,ELLERY STREET,143.507232666016,110.236213684082,0.224784,-0.01489932,-0.0872913,-4.687408,50.29776,249.7638,2036.685,0,89
2015-07-14 13:38:52,130813691325975339,42.3734146356583,-71.1094218492508,4,ELLERY STREET,143.218368530273,109.947341918945,0.3811867,0.05548191,-0.1498524,-4.869009,50.97252,250.0914,1865.92,0,89
2015-07-14 13:38:53,130813691336006951,42.3734146356583,-71.1094218492508,4,ELLERY STREET,143.540115356445,110.269088745117,0.5258592,0.01638123,-0.1303021,-3.510198,51.58326,249.7309,1701.77,0,89
2015-07-14 13:38:54,130813691346066776,42.3734146356583,-71.1094218492508,4,ELLERY STREET,143.422576904297,110.151550292969,1.041988,0.3409169,-0.1498524,-5.473536,54.35438,249.8484,1677.76,0,89
2015-07-14 13:38:55,130813691356157649,42.3734146356583,-71.1094218492508,4,ELLERY STREET,141.392211914063,108.121185302734,1.253132,0.3565572,-0.6112405,-4.60561,56.25555,251.8788,1852.2,0,89
2015-07-14 13:38:56,130813691366239304,42.3733878135681,-71.1094379425049,5,ELLERY STREET,143.603240966797,110.332206726074,1.319603,0.3135464,-0.6347009,-5.344554,59.63174,249.6678,2125.62,0,89
2015-07-14 13:38:57,130813691376268237,42.3733878135681,-71.1094379425049,5,ELLERY STREET,144.528442382813,111.257423400879,1.264862,-0.08528055,-0.8262942,-1.927438,54.34432,248.7426,2658.74,0,89
2015-07-14 13:38:58,130813691386353867,42.3733878135681,-71.1094379425049,5,ELLERY STREET,143.149444580078,109.87841796875,1.343064,0.286176,-1.494916,-4.822947,59.07067,250.1216,4000,0,89
2015-07-14 13:38:59,130813691396372444,42.3733878135681,-71.1094379425049,5,ELLERY STREET,139.601013183594,106.32999420166,1.190571,0.2939961,-1.831182,-5.159115,55.96241,253.67,3926.615,0,89
2015-07-14 13:39:00,130813691406427351,42.3733341693878,-71.1094754934311,5,ELLERY STREET,138.047698974609,104.776679992676,0.5923305,0.1024027,-1.068718,-5.477688,52.31551,255.2233,3369.485,0,89
2015-07-14 13:39:01,130813691416469336,42.3733341693878,-71.1094754934311,5,ELLERY STREET,138.777267456055,105.506240844727,0.8425748,0.04375171,-0.814564,-4.087567,50.27927,254.4938,3120.075,0,89
2015-07-14 13:39:02,130813691426602025,42.3733341693878,-71.1094754934311,5,ELLERY STREET,139.514663696289,106.243637084961,0.9794272,-0.09310068,-0.6268808,-2.990544,50.05144,253.7563,2918.44,0,89
2015-07-14 13:39:03,130813691436626945,42.3733341693878,-71.1094754934311,5,ELLERY STREET,140.143737792969,106.872718811035,0.7330929,0.0202913,-0.5134888,-3.394331,50.3522,253.1273,2720.235,0,89
2015-07-14 13:39:04,130813691446681861,42.3733341693878,-71.1094754934311,5,ELLERY STREET,139.333312988281,106.062294006348,0.4320176,0.02811143,-0.2945249,-4.656536,56.30885,253.9377,1985.48,0,89
2015-07-14 13:39:05,130813691456817695,42.3733341693878,-71.1094754934311,5,ELLERY STREET,138.565872192383,105.294845581055,0.08402151,0.0202913,-0.0872913,-3.63407,52.06177,254.7051,1732.64,0,89
2015-07-14 13:39:06,130813691466864591,42.3733341693878,-71.1094754934311,5,ELLERY STREET,138.072082519531,104.801063537598,0.09184165,0.05548191,-0.09511143,-5.62436,50.34208,255.1989,1435.21,0,89
2015-07-14 13:39:07,130813691476869978,42.3733341693878,-71.1094754934311,5,ELLERY STREET,140.559631347656,107.288612365723,0.1270323,-0.003169112,-0.07165103,-3.744091,50.54251,252.7114,1534.435,0,89
2015-07-14 13:39:08,130813691486907718,42.3732107877731,-71.1095613241196,5,ELLERY STREET,141.148254394531,107.877235412598,0.4789384,-0.1165611,-0.1615826,-5.50378,50.79631,252.1228,1500.135,0,89
2015-07-14 13:39:09,130813691497035243,42.3732107877731,-71.1095613241196,5,ELLERY STREET,142.650024414063,109.379005432129,0.8112943,-0.2416833,-0.3649062,-2.526487,53.52071,250.621,1605.975,0,89
2015-07-14 13:39:10,130813691507087049,42.3732107877731,-71.1095613241196,5,ELLERY STREET,143.773223876953,110.502197265625,0.967697,-0.2573236,-0.353176,-1.743119,54.23673,249.4978,2228.03,0,89
2015-07-14 13:39:11,130813691517222841,42.373194694519,-71.1095988750458,5,ELLERY STREET,146.869720458984,113.598693847656,1.432995,-0.2143128,-0.7285425,2.550024,56.41466,246.4013,3383.205,0,89
2015-07-14 13:39:12,130813691527238579,42.373194694519,-71.1095988750458,5,ELLERY STREET,151.866607666016,118.595581054688,1.315693,0.0007409565,-0.5213089,4.126636,58.86134,241.2694,3683.82,0,89
2015-07-14 13:39:13,130813691537290099,42.373194694519,-71.1095988750458,5,ELLERY STREET,147.562225341797,114.291191101074,0.9442366,0.08285239,-0.7050821,-4.564752,59.37646,245.7088,3427.55,0,89
2015-07-14 13:39:14,130813691548746204,42.3731356859207,-71.109631061554,4,ELLERY STREET,148.964797973633,115.693771362305,0.2873451,0.02811143,-0.2554243,-6.512148,55.62691,244.2585,3243.065,0,89
2015-07-14 13:39:15,130813691558889915,42.3731356859207,-71.109631061554,4,ELLERY STREET,151.857223510742,118.586196899414,0.09184165,-0.05791007,-0.1107517,-5.083245,53.82729,241.4656,3601.99,0,89
2015-07-14 13:39:16,130813691568931949,42.3731356859207,-71.109631061554,4,ELLERY STREET,151.799468994141,118.528442382813,0.1192121,-0.05791007,-0.03255034,-4.25014,53.60744,241.4715,3923.185,0,89
2015-07-14 13:39:17,130813691578953847,42.3731356859207,-71.109631061554,4,ELLERY STREET,152.600219726563,119.329193115234,0.5962405,0.04375171,-0.1537625,-1.08559,55.61308,240.6456,4000,0,89
2015-07-14 13:39:18,130813691588995942,42.3731356859207,-71.109631061554,4,ELLERY STREET,152.262680053711,118.991653442383,0.9637869,0.4386686,-0.4352874,-7.147629,51.05973,241.3316,4000,0,89
2015-07-14 13:39:19,130813691599088632,42.373012304306,-71.1096149682999,4,ELLERY STREET,153.654632568359,120.383598327637,0.9012258,0.2822659,-0.1928632,-4.715057,56.446,239.6164,4000,0,89
2015-07-14 13:39:20,130813691609112909,42.373012304306,-71.1096149682999,4,ELLERY STREET,151.377990722656,118.106971740723,1.401715,0.5989814,-0.6698915,-6.271616,52.97457,241.893,4000,0,89
2015-07-14 13:39:21,130813691619126853,42.37297129,-71.10959833,4,ELLERY STREET,150.338684082031,117.067665100098,1.417355,0.5559707,-0.7363627,-7.529614,55.07313,242.9323,4000,0,89
2015-07-14 13:39:22,130813691629176352,42.37297129,-71.10959833,4,ELLERY STREET,150.574310302734,117.303291320801,1.519017,0.6771828,-0.7246324,-5.871531,60.53844,242.6967,4000,0,89
2015-07-14 13:39:23,130813691639233915,42.37297129,-71.10959833,4,ELLERY STREET,150.381530761719,117.110504150391,1.816182,-0.2182229,-1.569207,-8.02793,63.87802,241.8447,4000,0,89
2015-07-14 13:39:24,130813691649358044,42.37297129,-71.10959833,4,ELLERY STREET,151.343292236328,118.072265625,1.468186,-0.1048309,-1.686509,-6.41087,61.75753,241.9277,4000,0,89
2015-07-14 13:39:25,130813691659439163,42.3729050159454,-71.1095505952835,4,ELLERY STREET,151.709228515625,118.438209533691,1.479916,-0.06182014,-1.393254,-6.46129,61.5915,241.5618,4000,0,89
2015-07-14 13:39:26,130813691669592589,42.3729050159454,-71.1095505952835,4,ELLERY STREET,151.112014770508,117.84098815918,0.8152043,0.1258631,-1.244672,-6.589124,56.12045,242.159,4000,0,89
2015-07-14 13:39:27,130813691679620004,42.3728781938553,-71.1095237731934,4,ELLERY STREET,150.86083984375,117.589805603027,0.6470714,0.0945826,-0.9005855,-7.741992,52.46015,242.4102,4000,0,89
2015-07-14 13:39:28,130813691689701994,42.3728781938553,-71.1095237731934,4,ELLERY STREET,151.010360717773,117.739334106445,0.8152043,0.0320215,-0.6229707,-6.280017,51.25266,242.2607,4000,0,89
2015-07-14 13:39:29,130813691699802117,42.3728406429291,-71.1095023155212,4,ELLERY STREET,150.956893920898,117.68586730957,1.13583,0.0320215,-0.6347009,-4.745301,50.79022,242.3141,4000,0,89
2015-07-14 13:39:30,130813691709941189,42.3728406429291,-71.1095023155212,4,ELLERY STREET,150.837036132813,117.566017150879,0.4711183,0.05939198,-0.3492659,-5.330758,50.8265,242.3341,4000,0,89
2015-07-14 13:39:31,130813691719993222,42.3728406429291,-71.1095023155212,4,ELLERY STREET,150.573501586914,117.302474975586,0.2912551,0.1102229,-0.2632444,-4.596498,50.40172,242.6975,2156.245,0,89
2015-07-14 13:39:33,130813691730005090,42.3728406429291,-71.1095023155212,4,ELLERY STREET,151.232055664063,117.961036682129,0.2912551,0.04766178,-0.2867048,-4.353057,52.41285,242.035,1992.34,0,89
2015-07-14 13:39:34,130813691740034649,42.3728406429291,-71.1095023155212,4,ELLERY STREET,150.692596435547,117.421577453613,0.1739531,0.03593158,-0.1342121,-3.551698,51.59867,242.5784,1749.545,0,89
2015-07-14 13:39:35,130813691750103221,42.3727709054947,-71.1094325780869,4,BROADWAY,150.922912597656,117.651885986328,0.1856833,0.04375171,-0.1498524,-2.643283,52.06306,242.3361,1756.405,0,89
2015-07-14 13:39:36,130813691760117775,42.3727709054947,-71.1094325780869,4,BROADWAY,150.692993164063,117.42195892334,0.1153021,0.1024027,-0.09511143,-5.164142,50.20564,242.578,1739.255,0,89
2015-07-14 13:39:37,130813691770269120,42.3727440834045,-71.1094164848328,4,BROADWAY,150.648712158203,117.37769317627,0.1583128,0.06721212,-0.1107517,-4.672956,50.66408,242.6122,3571.12,0,89
2015-07-14 13:39:38,130813691780278194,42.3727440834045,-71.1094164848328,4,BROADWAY,150.293701171875,117.022682189941,0.1895933,0.03984164,-0.1146618,-4.104957,50.7519,242.9702,1889.685,0,89
2015-07-14 13:39:39,130813691790436296,42.3727172613144,-71.1094111204147,4,BROADWAY,150.090576171875,116.819557189941,0.170043,-0.0422698,-0.0872913,-5.133242,51.06826,243.1804,1640.275,0,89
2015-07-14 13:39:40,130813691800470961,42.3727172613144,-71.1094111204147,4,BROADWAY,149.272125244141,116.001106262207,0.4828485,-0.1048309,-0.1889531,-6.568975,50.02805,243.9989,1964.9,0,89
2015-07-14 13:39:41,130813691810552031,42.3727172613144,-71.1094111204147,4,BROADWAY,150.32649230957,117.055465698242,1.15929,-0.4919277,-0.5173988,-3.376326,52.87136,243.2261,1920.555,0,89
2015-07-14 13:39:42,130813691820575253,42.3727172613144,-71.1094111204147,4,BROADWAY,152.084365844727,118.813339233398,1.667599,-0.3472551,-0.8380244,5.120401,54.50562,241.1866,3072.055,0,89
2015-07-14 13:39:43,130813691830702668,42.3727172613144,-71.1094111204147,4,BROADWAY,152.063751220703,118.792724609375,1.546387,0.2079746,-0.7441828,4.487448,58.10224,241.2073,3048.29,0,89
2015-07-14 13:39:44,130813691840852819,42.3727172613144,-71.1094111204147,4,BROADWAY,150.903961181641,117.632926940918,0.8816755,0.5246901,-0.8458446,0.3974897,58.93418,242.3671,4000,0,89
2015-07-14 13:39:45,130813691851010434,42.37264752388,-71.1093360185623,4,BROADWAY,151.04328918457,117.772262573242,1.429085,0.6028914,-1.491006,-0.8878289,56.15544,242.2277,4000,0,89
2015-07-14 13:39:46,130813691861011939,42.37264752388,-71.1093360185623,4,BROADWAY,150.726974487305,117.455947875977,1.464276,0.5559707,-1.060898,-5.409428,55.31467,242.4508,4000,0,89
2015-07-14 13:39:47,130813691871074118,42.37264752388,-71.1093360185623,4,BROADWAY,151.491485595703,118.22045135498,1.327423,0.6419922,-1.045258,-3.475938,55.50152,241.7796,2600.675,0,89
2015-07-14 13:39:48,130813691881075883,42.37264752388,-71.1093360185623,4,BROADWAY,151.092407226563,117.821380615234,1.022438,0.5051398,-0.9787869,-2.758782,55.69092,241.908,2070.74,0,89
2015-07-14 13:39:49,130813691891184216,42.37264752388,-71.1093360185623,4,BROADWAY,150.464492797852,117.193466186523,0.6861721,0.1141329,-0.7089922,-6.991408,50.24174,242.8065,1547.91,0,89
2015-07-14 13:39:50,130813691901194157,42.37264752388,-71.1093360185623,4,BROADWAY,150.87483215332,117.603805541992,1.045898,0.08676246,-0.5447693,-6.507463,48.6992,242.5372,1363.425,0,89
2015-07-14 13:39:51,130813691911324786,42.37264752388,-71.1093360185623,4,BROADWAY,150.739868164063,117.46883392334,1.045898,0.07112218,-0.5643197,-6.486863,49.84525,242.4568,1534.435,0,89
2015-07-14 13:39:52,130813691921428426,42.3725992441177,-71.1092340946198,3,BROADWAY,150.301116943359,117.030090332031,0.6314311,0.1375933,-0.4509277,-6.040414,51.86619,242.9699,1667.715,0,89
2015-07-14 13:39:53,130813691931569037,42.3725992441177,-71.1092340946198,3,BROADWAY,149.9951171875,116.724090576172,0.3186256,0.02811143,-0.298435,-6.358441,52.30723,243.2759,1763.265,0,89
2015-07-14 13:39:54,130813691941614824,42.3725992441177,-71.1092340946198,3,BROADWAY,150.924530029297,117.653503417969,0.1309423,-0.054,-0.2280538,-5.758614,53.87742,242.4266,1332.8,0,89
2015-07-14 13:39:55,130813691951627812,42.3725992441177,-71.1092340946198,3,BROADWAY,150.13850402832,116.867477416992,0.03710068,-0.0422698,-0.1342121,-5.334391,50.68206,243.1325,1267.875,0,89
2015-07-14 13:39:56,130813691961667809,42.3725992441177,-71.1092340946198,3,BROADWAY,150.723266601563,117.452247619629,0.09184165,-0.03835973,-0.1224819,-4.884446,50.8224,242.5478,1954.61,0,89
2015-07-14 13:39:57,130813691971716456,42.3725992441177,-71.1092340946198,3,BROADWAY,149.904724121094,116.633697509766,0.3694565,0.08676246,-0.09511143,-5.812422,51.80183,243.3956,2139.095,0,89
2015-07-14 13:39:58,130813691981858018,42.3725455999374,-71.1091375350952,4,BROADWAY,149.229339599609,115.958320617676,0.6979023,0.172784,-0.1811329,-4.102962,51.51811,244.0417,2262.33,0,89
2015-07-14 13:39:59,130813691991890292,42.3725455999374,-71.1091375350952,4,BROADWAY,149.645721435547,116.374694824219,0.9833373,0.1845142,-0.3883666,-1.659258,53.82315,243.6253,2238.32,0,89
2015-07-14 13:40:00,130813692001921615,42.3725455999374,-71.1091375350952,4,BROADWAY,149.573928833008,116.30290222168,1.354794,0.4191183,-0.5447693,-6.566981,57.30345,243.6971,2518.6,0,89
2015-07-14 13:40:01,130813692012044272,42.3725455999374,-71.1091375350952,4,BROADWAY,149.308410644531,116.037376403809,1.401715,0.1493236,-0.697262,-8.816517,60.69085,243.9626,2880.71,0,89
2015-07-14 13:40:02,130813692022116515,42.3725080490112,-71.1090624332428,4,BROADWAY,149.329498291016,116.058471679688,0.7721936,-0.003169112,-0.6894419,-9.444895,61.20787,243.9415,3013.99,0,89
2015-07-14 13:40:03,130813692032188809,42.3724973201752,-71.1090195178986,4,BROADWAY,149.586730957031,116.315711975098,1.096729,0.1297732,-1.16647,-5.81581,59.84949,243.6843,2026.395,0,89
2015-07-14 13:40:04,130813692042321592,42.3724973201752,-71.1090195178986,4,BROADWAY,150.028350830078,116.75732421875,1.272682,0.172784,-1.549657,-5.854059,55.3372,243.2427,1479.555,0,89
2015-07-14 13:40:05,130813692052472789,42.3724812269211,-71.1089819669724,3,BROADWAY,150.240661621094,116.969635009766,0.4124672,0.02811143,-0.7089922,-4.395568,51.96613,243.0303,1937.46,0,89
2015-07-14 13:40:06,130813692062610465,42.3724812269211,-71.1089819669724,3,BROADWAY,150.120162963867,116.849136352539,0.7213627,-0.1204712,-0.6073304,-5.789118,50.8633,243.1508,2084.46,0,89
2015-07-14 13:40:07,130813692072631394,42.3724812269211,-71.1089819669724,3,BROADWAY,150.335662841797,117.064636230469,0.9637869,-0.0422698,-0.5134888,-2.523222,49.9961,242.9354,2016.105,0,89
2015-07-14 13:40:08,130813692082707019,42.3724812269211,-71.1089819669724,3,BROADWAY,149.465469360352,116.194442749023,0.4320176,0.07894231,-0.3649062,-4.822346,50.81773,243.8056,1605.975,0,89
2015-07-14 13:40:09,130813692092754555,42.3724812269211,-71.1089819669724,3,BROADWAY,149.145263671875,115.874244689941,0.4711183,0.07894231,-0.353176,-3.956769,53.80547,244.1171,1599.36,0,89
2015-07-14 13:40:10,130813692102818637,42.3724544048309,-71.1089015007019,4,BROADWAY,149.339324951172,116.068298339844,0.3029853,0.07894231,-0.2515142,-3.205107,51.95242,243.9317,1729.21,0,89
2015-07-14 13:40:11,130813692112843803,42.3724544048309,-71.1089015007019,4,BROADWAY,149.567260742188,116.296241760254,0.2208739,0.07894231,-0.1889531,-3.044242,51.5487,243.7038,2381.89,0,89
2015-07-14 13:40:12,130813692122990936,42.3724490404129,-71.1088532209396,3,BROADWAY,150.253768920898,116.98274230957,0.08402151,-0.02271945,-0.1224819,-2.428091,51.81136,243.0172,3540.25,0,89
2015-07-14 13:40:13,130813692133068618,42.3724490404129,-71.1088532209396,3,BROADWAY,150.351943969727,117.080917358398,0.1192121,0.0945826,-0.07556109,-3.274625,50.79425,242.9191,4000,0,89
2015-07-14 13:40:14,130813692143127111,42.3724490404129,-71.1088532209396,3,BROADWAY,150.052215576172,116.781188964844,0.56887,-0.06964028,-0.2945249,-4.904704,51.24691,243.2188,4000,0,89
2015-07-14 13:40:15,130813692153238173,42.3724490404129,-71.1088532209396,3,BROADWAY,149.843566894531,116.572540283203,0.9559668,-0.3198846,-0.411827,-1.389178,52.69827,243.2024,4000,0,89
2015-07-14 13:40:16,130813692163390989,42.3724490404129,-71.1088532209396,3,BROADWAY,150.395050048828,117.1240234375,1.460366,-0.3550753,-0.7480929,3.834291,54.79984,242.876,3837.68,0,89
2015-07-14 13:40:17,130813692173503543,42.3724061250687,-71.108745932579,3,BROADWAY,149.765090942383,116.494064331055,1.335243,0.4660391,-0.7441828,4.143315,54.81118,243.6128,3823.96,0,89
2015-07-14 13:40:18,130813692183555622,42.3724061250687,-71.108745932579,3,BROADWAY,149.691116333008,116.42008972168,1.15538,0.575521,-0.7832835,1.277573,53.05142,243.5799,2669.03,0,89
2015-07-14 13:40:19,130813692193617803,42.3724061250687,-71.108745932579,3,BROADWAY,151.267150878906,117.996116638184,1.104549,0.344827,-0.6268808,4.512679,58.08811,242.0039,2610.72,0,89
2015-07-14 13:40:20,130813692203717277,42.3724061250687,-71.108745932579,3,BROADWAY,149.452072143555,116.181045532227,1.276592,0.3604673,-1.326783,-1.066288,55.89182,243.998,2457.105,0,89
2015-07-14 13:40:21,130813692213726966,42.3724061250687,-71.108745932579,3,BROADWAY,150.172653198242,116.901626586914,1.245312,0.3370068,-1.193841,-1.306301,56.28363,243.0984,2388.75,0,89
2015-07-14 13:40:22,130813692223738135,42.3723632097244,-71.1086869239807,3,BROADWAY,150.051040649414,116.780014038086,0.7057224,0.1375933,-1.1391,-3.878646,53.03205,243.22,2337.3,0,89
2015-07-14 13:40:23,130813692233886772,42.3723632097244,-71.1086869239807,3,BROADWAY,149.421295166016,116.150260925293,0.1348524,0.1532336,-0.9553265,-5.365222,50.02066,243.8497,1541.05,0,89
2015-07-14 13:40:24,130813692243925123,42.3723632097244,-71.1086869239807,3,BROADWAY,149.657409667969,116.386383056641,0.1974135,0.3018162,-0.8849453,-3.915297,51.70109,243.6136,1486.415,0,89
2015-07-14 13:40:25,130813692254052382,42.3723632097244,-71.1086869239807,3,BROADWAY,150.868576049805,117.597549438477,0.7721936,0.176694,-0.7089922,-6.25103,47.60069,242.5292,1312.22,0,89
2015-07-14 13:40:26,130813692264157235,42.3723632097244,-71.1086869239807,3,BROADWAY,149.803237915039,116.532211303711,0.8855855,0.04766178,-0.6307908,-6.849874,48.59754,243.4678,1643.705,0,89
2015-07-14 13:40:27,130813692274179139,42.3723042011261,-71.1085850000381,4,BROADWAY,150.306030273438,117.034996032715,1.13583,0.1297732,-0.6229707,-5.949422,47.70505,242.965,1684.62,0,89
2015-07-14 13:40:28,130813692284278869,42.3723042011261,-71.1085850000381,4,BROADWAY,149.986480712891,116.715446472168,1.206211,-0.09310068,-0.4274673,-7.1598,48.80616,243.2318,1732.64,0,89
2015-07-14 13:40:29,130813692294377693,42.3723042011261,-71.1085850000381,4,BROADWAY,149.736846923828,116.465812683105,0.2521544,-0.04617986,-0.2827947,-5.507086,49.44997,243.5342,1797.565,0,89
2015-07-14 13:40:30,130813692304396523,42.3723042011261,-71.1085850000381,4,BROADWAY,150.539916992188,117.268882751465,0.3225357,-0.06573021,-0.3258055,-5.377626,51.69123,242.7311,1841.91,0,89
2015-07-14 13:40:31,130813692314509040,42.3723042011261,-71.1085850000381,4,BROADWAY,151.260986328125,117.989959716797,0.111392,-0.06573021,-0.1889531,-3.248766,49.72242,242.01,1770.125,0,89
2015-07-14 13:40:32,130813692324621623,42.3723042011261,-71.1085850000381,4,BROADWAY,151.150390625,117.879364013672,-0.005910069,-0.06182014,-0.07947116,-3.327805,45.65135,242.1206,1776.985,0,89
2015-07-14 13:40:33,130813692334636794,42.3723042011261,-71.1085850000381,4,BROADWAY,307.954711914063,274.683685302734,0.1935034,-0.07355034,-0.1146618,10.03541,48.46771,85.31631,3615.465,0,89
2015-07-14 13:40:34,130813692344667875,42.3723042011261,-71.1085850000381,4,BROADWAY,297.444641113281,264.173614501953,0.5219492,-0.3550753,-0.04819062,36.55753,76.27576,95.82638,3475.325,0,89
2015-07-14 13:40:35,130813692354678469,42.3723042011261,-71.1085850000381,4,BROADWAY,283.904083251953,250.633056640625,0.3147155,0.08676246,-0.2515142,20.19758,77.79154,109.3669,2077.6,0,89
2015-07-14 13:40:36,130813692364686952,42.3722451925278,-71.1083918809891,3,BROADWAY,280.382415771484,247.111389160156,0.5532297,-0.09310068,-0.4235572,-4.17427,60.00894,112.7368,1151.5,0,89
2015-07-14 13:40:37,130813692374842829,42.3722451925278,-71.1083918809891,3,BROADWAY,283.785430908203,250.514404296875,0.8973157,0.2548954,-0.1772229,-13.91173,63.46881,109.4856,943.005,0,89
2015-07-14 13:40:38,130813692384922450,42.3722451925278,-71.1083918809891,3,BROADWAY,286.498687744141,253.227661132813,0.6314311,0.1258631,-0.1967732,-2.526418,59.44975,106.7723,2060.695,0,89
2015-07-14 13:40:39,130813692395034966,42.3722451925278,-71.1083918809891,3,BROADWAY,303.175567626953,269.904541015625,0.3850968,0.1024027,-0.2671545,-8.194696,57.42416,90.09544,1182.37,0,89
2015-07-14 13:40:40,130813692405035258,42.3722451925278,-71.1083918809891,3,BROADWAY,308.837310791016,275.566284179688,0.6079707,0.172784,-0.2867048,-7.746117,61.55654,84.43372,813.155,0,89
2015-07-14 13:40:41,130813692415037256,42.3722130060196,-71.1082845926285,3,BROADWAY,319.508056640625,286.237030029297,0.8112943,0.05939198,-0.5173988,-3.385288,66.79739,74.30474,1527.575,0,89
2015-07-14 13:40:42,130813692425086963,42.3722130060196,-71.1082845926285,3,BROADWAY,242.135925292969,208.864898681641,1.186661,-0.01489932,0.03783089,-167.2625,-81.2527,331.1351,256.27,0,89
2015-07-14 13:40:43,130813692435168132,42.3722130060196,-71.1082845926285,3,BROADWAY,208.912094116211,175.641067504883,0.9207762,0.08285239,0.04565103,-179.3119,-75.1498,4.358919,556.885,0,89
2015-07-14 13:40:44,130813692445250397,42.3722130060196,-71.1082845926285,3,BROADWAY,175.891342163086,142.620315551758,1.061539,-0.1713021,0.3545464,4.936833,78.01744,217.3797,1452.36,0,89
2015-07-14 13:40:45,130813692455402909,42.3722130060196,-71.1082845926285,3,BROADWAY,216.896011352539,183.624984741211,1.010708,0.172784,0.3819169,-173.9026,-84.31911,356.375,1110.585,0,89
2015-07-14 13:40:46,130813692465424812,42.3722130060196,-71.1082845926285,3,BROADWAY,242.037338256836,208.766311645508,0.9207762,0.3682874,0.006550342,-168.0939,-74.79897,331.2337,1821.33,0,89
2015-07-14 13:40:47,130813692475446711,42.3721915483475,-71.1082094907761,4,BROADWAY,227.496536254883,194.225509643555,1.194481,0.2783558,0.2333343,-164.5623,-80.70432,345.7745,1524.145,0,89
2015-07-14 13:40:48,130813692485508886,42.3721700906754,-71.1081826686859,4,BROADWAY,215.091491699219,181.820465087891,1.327423,0.2470753,-0.3805465,-12.46363,69.97504,176.6572,4000,0,89
2015-07-14 13:40:49,130813692495617503,42.3721700906754,-71.1081826686859,4,BROADWAY,213.161026000977,179.889999389648,1.683239,0.290086,0.3232659,-15.16809,79.31683,180.11,929.53,0,89
2015-07-14 13:40:50,130813692505687004,42.3721700906754,-71.1081826686859,4,BROADWAY,210.128112792969,176.857086181641,1.370434,0.9508876,0.6595318,-164.0497,-70.15398,3.142906,779.1,0,89
2015-07-14 13:40:51,130813692515798018,42.3721700906754,-71.1081826686859,4,BROADWAY,218.936569213867,185.665542602539,1.11628,0.1571437,0.2216041,-161.8257,-75.46479,354.3345,984.165,0,89
2015-07-14 13:40:52,130813692525814109,42.3721486330032,-71.1081182956696,5,BROADWAY,206.126251220703,172.855224609375,1.241402,0.2783558,0.0730215,-174.9566,-81.87204,7.144788,881.51,0,89
2015-07-14 13:40:53,130813692535917826,42.3721486330032,-71.1081182956696,5,BROADWAY,226.872894287109,193.601867675781,0.7643734,0.2548954,0.1238524,-168.8443,-84.85625,346.3981,967.015,0,89
2015-07-14 13:40:54,130813692545936046,42.3721379041672,-71.1080861091614,5,BROADWAY,253.364028930664,220.093002319336,1.002888,0.08676246,0.3780068,-159.8879,-79.56539,322.1225,820.015,0,89
2015-07-14 13:40:55,130813692556027268,42.3721379041672,-71.1080861091614,5,BROADWAY,319.883666992188,286.612640380859,1.495556,0.1141329,0.4405679,-164.3811,-74.98966,253.3874,710.745,0,89
2015-07-14 13:40:56,130813692566149915,42.3721271753311,-71.1080485582352,6,BROADWAY,194.24284362793,160.971817016602,1.7067,-0.2886041,0.6673519,-161.3284,-89.23056,19.02818,697.025,0,89
2015-07-14 13:40:57,130813692576194043,42.3721271753311,-71.1080485582352,6,BROADWAY,28.3120422363281,355.041015625,0.9168661,-0.02271945,-0.4040068,-9.170908,73.75559,1.127892,1380.575,0,89
2015-07-14 13:40:58,130813692586226610,42.3721271753311,-71.1080485582352,6,BROADWAY,110.074165344238,76.8031387329102,0.8073842,0.2157947,-0.1889531,-8.416541,69.04516,283.1968,519.4,0,89
2015-07-14 13:40:59,130813692596324557,42.3721271753311,-71.1080485582352,6,BROADWAY,171.940322875977,138.669296264648,0.7174526,0.04766178,0.09648192,-12.53599,89.11642,221.3307,447.615,0,89
2015-07-14 13:41:00,130813692606443469,42.3721271753311,-71.1080485582352,6,BROADWAY,178.385940551758,145.11491394043,0.8347546,0.1493236,0.06520137,-162.5181,-88.48048,34.88509,1021.65,0,89
2015-07-14 13:41:01,130813692616505649,42.3721271753311,-71.1080485582352,6,BROADWAY,172.7451171875,139.474090576172,0.4202874,0.0007409565,-0.02082014,-174.9692,-85.4573,40.52591,1759.835,0,89
2015-07-14 13:41:02,130813692626628259,42.3721081,-71.10791645,7,ELLSWORTH AVENUEE,178.790710449219,145.519683837891,0.3733666,0.1297732,-0.1224819,-164.0621,-89.31635,34.4803,594.615,0,89
2015-07-14 13:41:03,130813692636742612,42.3721081,-71.10791645,7,ELLSWORTH AVENUEE,184.665679931641,151.394653320313,0.4789384,0.05157185,-0.04819062,-166.4796,-87.2135,28.73128,919.24,0,89
2015-07-14 13:41:04,130813692646909838,42.3721081,-71.10791645,7,ELLSWORTH AVENUEE,146.343215942383,113.072189331055,0.6040606,-0.4137263,-0.3336256,11.83409,79.95837,256.714,1401.155,0,89
2015-07-14 13:41:05,130813692657024843,42.3721081,-71.10791645,7,ELLSWORTH AVENUEE,29.4739685058594,356.202941894531,0.6666217,-0.167392,-0.4509277,18.40986,67.74376,3.797056,3817.1,0,89
2015-07-14 13:41:06,130813692667169804,42.3721081,-71.10791645,7,ELLSWORTH AVENUEE,24.3072814941406,351.036254882813,0.8621252,-0.4332766,-0.5604096,17.93328,66.88209,8.963745,4000,0,89
2015-07-14 13:41:07,130813692677186484,42.3721081,-71.10791645,7,ELLSWORTH AVENUEE,30.0154113769531,356.744384765625,0.8034741,-0.796913,0.1903236,150.2149,-81.58263,182.7128,4000,0,89
2015-07-14 13:41:08,130813692687257769,42.3720788955688,-71.1077803373337,6,BROADWAY,298.945434570313,265.674407958984,1.996045,0.8570459,-0.5447693,20.58618,63.17312,92.96814,4000,0,89
2015-07-14 13:41:09,130813692697263826,42.3720788955688,-71.1077803373337,6,BROADWAY,307.514312744141,274.243286132813,1.675419,0.5559707,-1.006157,10.64572,61.83111,85.75673,4000,0,89
2015-07-14 13:41:10,130813692707295752,42.3720628023148,-71.1077266931534,5,BROADWAY,325.889007568359,292.617980957031,1.108459,0.7944849,-1.428445,-5.650642,61.25631,67.38203,4000,0,89
2015-07-14 13:41:11,130813692717370758,42.3720413446426,-71.1076998710632,5,BROADWAY,329.010620117188,295.739593505859,0.4984888,0.3018162,-0.7793734,-10.78666,56.74228,64.26041,4000,0,89
2015-07-14 13:41:12,130813692727455637,42.3720252513886,-71.1076730489731,4,BROADWAY,334.463195800781,301.192169189453,0.6979023,0.02420137,-0.9944272,-10.18174,54.79364,58.80784,4000,0,89
